City_ID,City,Lat,Lng,Max Temp,Humidity,Cloudiness,Wind Speed,Country,Date
0,port alfred,-33.5906,26.891,293.03,81,35,1.47,ZA,1710824455
1,hamilton,39.1834,-84.5333,273.95,61,100,5.66,US,1710824202
2,lebu,-37.6167,-73.65,286.52,81,100,3.4,CL,1710824455
3,dimako,4.3833,13.5667,294.86,94,100,0.93,CM,1710824456
4,petropavlovsk-kamchatsky,53.0452,158.6483,273.48,86,40,22.35,RU,1710824456
5,grytviken,-54.2811,-36.5092,274.32,90,76,3.54,GS,1710824456
6,bethel,41.3712,-73.414,275.79,62,5,1.34,US,1710824234
7,hithadhoo,-0.6,73.0833,301.85,73,15,4.34,MV,1710824457
8,port-aux-francais,-49.35,70.2167,280.13,86,88,15.25,TF,1710824457
9,ribeira grande,38.5167,-28.7,287.47,81,55,4.02,PT,1710824457
10,tiksi,71.6872,128.8694,254.1,90,75,2.95,RU,1710824457
11,fort bragg,35.139,-79.006,282.0,36,100,6.69,US,1710824457
12,yellowknife,62.456,-114.3525,250.44,59,20,3.6,CA,1710824458
13,tazovsky,67.4667,78.7,254.75,96,50,3.67,RU,1710824458
14,kijang,35.2442,129.2139,287.0,30,81,7.16,KR,1710824458
15,umluj,25.0213,37.2685,294.84,49,2,6.8,SA,1710824458
16,mejit,10.2753,170.8646,299.95,77,63,6.94,MH,1710824459
17,utrik,11.2278,169.8474,299.83,77,98,6.34,MH,1710824459
18,badger,64.8,-147.5333,264.1,58,75,0.0,US,1710824459
19,wailua homesteads,22.0669,-159.378,294.68,83,85,3.85,US,1710824459
20,san pedro,14.35,121.0167,305.72,56,75,3.13,PH,1710824238
21,brisas de zicatela,15.8369,-97.0419,297.97,65,24,0.89,MX,1710824460
22,avarua,-21.2078,-159.775,301.18,78,62,3.6,CK,1710824460
23,llandudno,53.325,-3.8315,284.98,86,100,5.96,GB,1710824298
24,mitu,1.1983,-70.1733,296.78,95,66,0.13,CO,1710824460
25,cockburn town,21.4612,-71.1419,299.21,87,6,7.35,TC,1710824460
26,waitangi,-43.9535,-176.5597,284.72,79,56,4.92,NZ,1710824461
27,longyearbyen,78.2186,15.6401,247.06,76,0,1.03,SJ,1710824461
28,blackmans bay,-43.0167,147.3167,300.78,53,60,2.68,AU,1710824461
29,antofagasta,-23.65,-70.4,292.75,83,63,1.04,CL,1710824413
30,vadso,70.0744,29.7487,270.24,80,75,6.17,NO,1710824462
31,port mathurin,-19.6833,63.4167,299.72,77,5,9.4,MU,1710824462
32,puerto natales,-51.7236,-72.4875,275.47,92,99,1.37,CL,1710824462
33,igarka,67.4667,86.5833,258.78,91,100,4.08,RU,1710824295
34,qoryooley,1.7878,44.53,302.03,61,23,6.3,SO,1710824463
35,isafjordur,66.0755,-23.124,273.16,96,100,8.29,IS,1710824464
36,okhotsk,59.3833,143.3,270.94,79,99,1.98,RU,1710824464
37,iqaluit,63.7506,-68.5145,255.0,78,100,0.0,CA,1710824465
38,kapuskasing,49.4169,-82.4331,263.2,73,100,3.6,CA,1710824249
39,olonkinbyen,70.9221,-8.7187,270.08,93,100,15.88,SJ,1710824465
40,leh,34.1667,77.5833,266.72,61,41,1.77,IN,1710824465
41,stanley,54.868,-1.6985,283.86,85,75,5.14,GB,1710824466
42,papatowai,-46.5619,169.4708,284.87,64,21,4.05,NZ,1710824466
43,jamestown,42.097,-79.2353,272.92,100,100,6.17,US,1710824404
44,meulaboh,4.1363,96.1285,303.17,66,22,2.28,ID,1710824466
45,bilibino,68.0546,166.4372,257.79,82,4,1.47,RU,1710824466
46,la ronge,55.1001,-105.2842,267.29,63,20,6.69,CA,1710824467
47,farmville,37.3021,-78.3919,276.47,51,0,0.0,US,1710824467
48,leiyang,26.4024,112.8591,289.04,60,95,2.76,CN,1710824269
49,luderitz,-26.6481,15.1594,292.18,68,99,4.18,NA,1710824467
50,port elizabeth,-33.918,25.5701,292.77,91,0,5.66,ZA,1710824416
51,adamstown,-25.066,-130.1015,297.83,79,100,7.15,PN,1710824468
52,pruzhany,52.5567,24.4644,274.77,97,97,5.19,BY,1710824468
53,vuktyl,63.8567,57.3094,266.54,90,100,4.47,RU,1710824469
54,calca,-13.3333,-71.95,286.79,92,100,2.05,PE,1710824469
55,mar del plata,-38.0023,-57.5575,292.16,73,100,3.6,AR,1710824370
56,mwinilunga,-11.7358,24.4293,290.7,98,100,2.0,ZM,1710824469
57,bredasdorp,-34.5322,20.0403,291.54,98,98,1.81,ZA,1710824470
58,sao vicente,-23.9631,-46.3919,302.25,26,96,1.16,BR,1710824455
59,pangody,65.85,74.4859,262.1,94,92,7.24,RU,1710824470
60,lihue,21.9789,-159.3672,295.02,83,78,3.4,US,1710824470
61,albany,42.6001,-73.9662,274.59,68,84,0.89,US,1710824401
62,kotel'nikovo,47.6317,43.1461,274.79,92,62,4.11,RU,1710824471
63,carnarvon,-24.8667,113.6333,304.0,59,95,4.41,AU,1710824471
64,levuka,50.1834,-105.4011,275.99,86,3,5.74,CA,1710824471
65,west island,-12.1568,96.8225,303.14,74,75,3.6,CC,1710824472
66,sodo,6.8642,37.7628,293.01,46,91,2.04,ET,1710824472
67,dudinka,69.4058,86.1778,257.94,96,97,3.91,RU,1710824436
68,wladyslawowo,54.7909,18.4009,276.19,74,98,2.15,PL,1710824202
69,beipiao,41.7919,120.7792,277.75,40,43,5.34,CN,1710824473
70,conde,-7.2597,-34.9075,299.85,94,20,2.06,BR,1710824405
71,uturoa,-16.7333,-151.4333,301.97,67,97,2.84,PF,1710824473
72,elkins,38.9259,-79.8467,271.64,80,100,5.66,US,1710824474
73,udachny,66.4167,112.4,258.4,54,75,10.75,RU,1710824474
74,terrace,54.5163,-128.6035,279.1,70,40,1.54,CA,1710824180
75,coahuayana de hidalgo,18.7,-103.6583,295.12,76,87,1.54,MX,1710824474
76,aasiaat,68.7098,-52.8699,242.77,96,29,3.3,GL,1710824475
77,iskateley,67.6803,53.1512,258.72,90,21,3.13,RU,1710824475
78,codrington,-38.2667,141.9667,294.79,50,100,8.09,AU,1710824476
79,lagoa,39.05,-27.9833,287.41,66,66,10.07,PT,1710824476
80,minas de marcona,-15.2119,-75.1103,292.48,83,100,1.66,PE,1710824477
81,port macquarie,-31.4333,152.9167,298.65,70,20,7.06,AU,1710824477
82,newman,37.3138,-121.0208,289.83,82,8,1.34,US,1710824478
83,watertown,42.3709,-71.1828,276.16,63,20,5.66,US,1710824396
84,touros,-5.1989,-35.4608,300.44,81,78,4.12,BR,1710823996
85,geraldton,-28.7667,114.6,304.38,33,0,9.77,AU,1710824387
86,nefta,33.8731,7.8777,291.29,26,97,2.91,TN,1710824479
87,edinburgh of the seven seas,-37.0676,-12.3116,291.93,91,100,7.53,SH,1710824480
88,raduzhny,62.0961,77.475,262.28,88,14,5.14,RU,1710824480
89,princeville,45.7668,-61.2985,275.61,82,75,1.54,CA,1710824481
90,ust-nera,64.5667,143.2,262.08,90,100,2.49,RU,1710824482
91,rio grande,-32.035,-52.0986,297.56,97,91,3.11,BR,1710824041
92,sarina,-21.4333,149.2167,303.85,51,99,5.02,AU,1710824483
93,puerto deseado,-47.7503,-65.8938,286.04,54,73,7.89,AR,1710824484
94,agbabu,6.5886,4.8343,298.64,97,72,0.66,NG,1710824484
95,ushuaia,-54.8,-68.3,274.96,75,0,1.03,AR,1710824358
96,neryungri,56.6709,124.6491,262.75,77,70,0.53,RU,1710824485
97,georgetown,5.4112,100.3354,307.11,53,20,3.6,MY,1710824264
98,choele choel,-39.2667,-65.6833,291.32,21,70,3.7,AR,1710824351
99,ugoofaaru,5.6667,73.0,301.77,74,49,5.24,MV,1710824486
100,xianshuigu,38.985,117.3828,287.15,11,0,5.0,CN,1710824487
101,turaif,31.6725,38.6637,282.29,93,75,5.14,SA,1710824488
102,tomelloso,39.1522,-3.0243,288.44,49,95,2.24,ES,1710824488
103,nizhnesortymskiy,62.4397,71.7603,263.11,86,100,8.78,RU,1710824489
104,tofol,5.3248,163.0078,301.66,77,72,3.52,FM,1710824490
105,rockport,28.0206,-97.0544,293.16,60,0,4.12,US,1710824490
106,inhapi,-9.2214,-37.7486,296.8,85,66,1.76,BR,1710824490
107,pitimbu,-7.4706,-34.8086,300.48,77,53,4.32,BR,1710824491
108,acajutla,13.5928,-89.8275,299.98,69,98,1.99,SV,1710824444
109,tsiombe,-25.3,45.4833,300.03,78,3,2.13,MG,1710824491
110,tafo,6.7345,-1.6127,297.26,84,20,1.49,GH,1710824492
111,tucumcari,35.1717,-103.725,276.06,70,0,2.57,US,1710824493
112,tahta,26.7693,31.5021,287.83,48,2,3.81,EG,1710824493
113,tindouf,27.6711,-8.1474,292.4,16,0,2.57,DZ,1710824494
114,taoudenni,22.6783,-3.9836,296.59,12,100,3.62,ML,1710824494
115,tostado,-29.232,-61.7692,299.11,88,32,3.55,AR,1710824495
116,college,64.8569,-147.8028,264.14,52,75,0.0,US,1710824403
117,holualoa,19.6228,-155.9522,295.25,79,23,1.82,US,1710824496
118,saipan,15.1355,145.701,298.96,68,30,6.38,MP,1710824496
119,nova vicosa,-17.8919,-39.3719,298.44,92,71,3.02,BR,1710824496
120,hilo,19.7297,-155.09,296.08,87,100,4.12,US,1710824312
121,saint-pierre,-21.3393,55.4781,301.97,58,0,1.54,RE,1710824497
122,saynshand,44.8824,110.1163,273.48,37,2,4.14,MN,1710824498
123,invercargill,-46.4,168.35,287.05,70,23,3.13,NZ,1710824498
124,urzhar,47.093,81.6294,276.62,86,100,1.17,KZ,1710824499
125,kodiak,57.79,-152.4072,273.32,74,100,1.29,US,1710824499
126,berdigestyakh,62.0989,126.6992,265.42,85,89,5.54,RU,1710824500
127,yukhnov,54.7444,35.2297,273.92,98,100,2.9,RU,1710824500
128,queenstown,-31.8976,26.8753,291.33,51,3,1.39,ZA,1710824491
129,arraial do cabo,-22.9661,-42.0278,296.46,94,81,0.47,BR,1710824437
130,suva,-18.1416,178.4415,298.86,94,75,2.06,FJ,1710824501
131,west bay,19.3667,-81.4167,297.63,88,3,4.59,KY,1710824437
132,les anglais,18.3054,-74.2197,298.2,78,1,1.53,HT,1710824502
133,quellon,-43.1167,-73.6167,284.38,94,100,7.26,CL,1710824502
134,shurugwi,-19.6702,30.0059,289.6,83,96,2.81,ZW,1710824503
135,vilyuchinsk,52.9306,158.4028,274.3,84,98,10.88,RU,1710824503
136,bestobe,52.4994,73.0975,272.03,90,98,5.74,KZ,1710824504
137,margaret river,-33.95,115.0667,295.74,32,0,3.59,AU,1710824504
138,nantucket,41.2835,-70.0995,277.23,56,0,7.2,US,1710824351
139,labytnangi,66.6572,66.4183,260.3,73,26,9.8,RU,1710824505
140,yaren,-0.5472,166.916,301.78,76,40,5.68,NR,1710824505
141,mahriz,31.5917,54.4318,292.43,26,89,5.41,IR,1710824506
142,brookings,44.3114,-96.7984,274.87,40,0,5.66,US,1710824506
143,afaahiti,-17.75,-149.2833,301.08,76,89,3.51,PF,1710824506
144,dar chioukh,34.8964,3.4854,287.05,43,100,2.14,DZ,1710824507
145,sao joao da barra,-21.6403,-41.0511,298.42,93,91,2.06,BR,1710824507
146,jimenez,28.3333,-105.4,285.39,77,45,1.83,MX,1710824508
147,piacabucu,-10.4056,-36.4344,300.19,80,41,3.28,BR,1710824508
148,markala,13.7021,-6.0659,299.2,13,43,3.95,ML,1710824508
149,peace river,56.2501,-117.286,272.32,80,75,3.6,CA,1710824503
150,poronaysk,49.2167,143.1167,269.65,87,100,6.71,RU,1710824509
151,whitehorse,60.7161,-135.0538,276.58,52,75,1.03,CA,1710824481
152,saint-philippe,-21.3585,55.7679,301.92,77,52,5.54,RE,1710824510
153,hermanus,-34.4187,19.2345,288.6,93,81,3.68,ZA,1710824510
154,iquique,-20.2208,-70.1431,294.17,78,40,0.97,CL,1710824342
155,tazacorte,28.629,-17.9293,292.69,77,100,5.14,ES,1710824510
156,acapulco de juarez,16.8634,-99.8901,296.96,80,51,1.01,MX,1710824502
157,kaeng khro,16.1086,102.2581,306.42,40,59,2.58,TH,1710824511
158,puerto ayora,-0.7393,-90.3518,300.12,93,87,0.77,EC,1710824298
159,tocopilla,-22.092,-70.1979,295.42,77,17,0.93,CL,1710824511
160,takoradi,4.8845,-1.7554,300.4,89,53,2.25,GH,1710824511
161,rikaze,29.25,88.8833,278.44,18,0,0.54,CN,1710824512
162,tan-tan,28.438,-11.1032,289.58,88,0,2.41,MA,1710824512
163,bopolu,7.0667,-10.4875,297.32,96,65,1.06,LR,1710824512
164,kokubu-matsuki,31.7333,130.7667,282.89,93,75,3.6,JP,1710824512
165,darab,28.7519,54.5444,293.59,49,100,2.77,IR,1710824512
166,idri,27.5,13.2667,285.41,37,0,2.48,LY,1710824439
167,borba,-4.3878,-59.5939,296.47,99,100,0.91,BR,1710824513
168,kruisfontein,-34.0033,24.7314,288.09,85,99,3.2,ZA,1710824513
169,saint-joseph,-21.3667,55.6167,301.36,74,49,4.18,RE,1710824513
170,thompson,55.7435,-97.8558,264.24,67,100,7.2,CA,1710824496
171,dauphin,51.1494,-100.0502,275.23,80,40,3.09,CA,1710824514
172,mermoz boabab,14.7065,-17.4758,293.03,94,92,4.12,SN,1710824514
173,chibougamau,49.9168,-74.3659,261.94,79,100,4.63,CA,1710824514
174,taltal,-25.4,-70.4833,291.72,89,41,0.52,CL,1710824467
175,ancud,-41.8697,-73.8203,284.78,91,100,5.11,CL,1710824514
176,labuan bajo,-8.4964,119.8877,302.21,74,84,3.41,ID,1710824515
177,al wafrah,28.6392,47.9306,297.16,57,100,3.91,KW,1710824515
178,pandan,14.0453,124.1694,300.4,73,84,5.08,PH,1710824515
179,namanga,-2.5433,36.7905,293.88,82,36,1.57,KE,1710824515
180,kitimat,54.0524,-128.6534,279.36,79,100,0.57,CA,1710824516
181,new norfolk,-42.7826,147.0587,301.44,41,62,5.42,AU,1710824516
182,atafu village,-8.5421,-172.5159,302.35,74,98,3.38,TK,1710824420
183,hautmont,50.2508,3.9214,281.79,93,89,2.42,FR,1710824516
184,talnakh,69.4865,88.3972,257.71,93,100,4.6,RU,1710824517
185,rio bueno,-40.3167,-72.9667,281.54,89,100,1.71,CL,1710824517
186,prainha,-1.8,-53.48,296.42,98,80,1.44,BR,1710824517
187,nar'yan-mar,67.6713,53.087,258.77,90,21,3.13,RU,1710824517
188,kingston,17.997,-76.7936,301.68,78,20,4.12,JM,1710824293
189,guerrero negro,27.9769,-114.0611,289.12,78,3,5.64,MX,1710824518
190,punta arenas,-53.15,-70.9167,273.21,93,75,1.54,CL,1710824377
191,broken hill,-31.95,141.4333,301.16,33,77,6.36,AU,1710824380
192,elverum,60.8819,11.5623,259.56,98,85,0.47,NO,1710824518
193,monrovia,6.3005,-10.7969,299.59,90,29,2.84,LR,1710824413
194,sitka,57.0531,-135.33,280.09,93,100,0.0,US,1710824336
195,kiffa,16.6166,-11.4045,297.33,10,0,4.95,MR,1710824519
196,kachkanar,58.7,59.4948,268.31,74,20,1.7,RU,1710824519
197,tura,25.5198,90.2201,306.09,17,49,1.96,IN,1710824519
198,tangkak,2.2673,102.5453,307.52,43,57,2.66,MY,1710824519
199,qaqortoq,60.7167,-46.0333,254.19,78,17,3.08,GL,1710824520
200,laem sing,12.4816,102.0738,305.34,72,53,3.73,TH,1710824520
201,marolambo,-20.05,48.1167,297.43,78,11,0.35,MG,1710824520
202,la'ie,21.6477,-157.9253,295.93,74,64,2.68,US,1710824520
203,hasaki,35.7333,140.8333,287.2,34,100,2.7,JP,1710824520
204,haiku-pauwela,20.9219,-156.3051,294.4,78,40,3.58,US,1710824521
205,bubaque,11.2833,-15.8333,297.61,67,24,3.63,GW,1710824521
206,gadzhiyevo,69.2551,33.3362,270.89,92,100,1.12,RU,1710824521
207,abalak,58.1286,68.5944,266.12,78,72,2.06,RU,1710824521
208,krusevac,43.58,21.3339,281.35,76,100,2.24,RS,1710824522
209,karratha,-20.7377,116.8463,306.48,50,57,7.92,AU,1710824432
210,sigli,5.3848,95.9609,303.35,63,12,2.81,ID,1710824522
211,bria,6.5423,21.9863,296.34,81,100,1.58,CF,1710824402
212,tanumah,27.1,44.1333,289.34,89,100,4.04,SA,1710824523
213,tongouson,5.0214,120.1328,300.97,72,70,2.65,PH,1710824523
214,ilulissat,69.2167,-51.1,256.16,46,10,4.63,GL,1710824523
215,klyuchi,52.2667,79.1667,274.23,76,100,5.02,RU,1710824524
216,bintulu,3.1667,113.0333,302.38,83,40,2.68,MY,1710824524
217,tralee,52.2704,-9.7026,280.88,95,77,2.68,IE,1710824525
218,mili,6.0815,171.735,301.24,79,72,6.05,MH,1710824525
219,punto fijo,11.6956,-70.1996,299.6,81,31,12.47,VE,1710824525
220,daru,-9.0763,143.2092,304.38,65,89,4.14,PG,1710824526
221,selfoss,63.9331,-20.9971,271.51,85,86,8.73,IS,1710824526
222,puerto baquerizo moreno,-0.9,-89.6,300.12,80,100,1.2,EC,1710824526
223,bel ombre,-4.6167,55.4167,303.06,74,20,3.09,SC,1710824527
224,inda silase,14.1031,38.2829,293.96,50,85,1.0,ET,1710824527
225,vrontados,38.4089,26.1328,279.07,87,0,0.51,GR,1710824527
226,canavieiras,-15.675,-38.9472,298.24,87,88,1.54,BR,1710824315
227,gur'yevsk,54.2833,85.9333,274.83,88,85,2.77,RU,1710824527
228,knyaze-volkonskoye,48.4642,135.4567,270.34,86,85,1.79,RU,1710824528
229,urangan,-25.3,152.9,302.15,67,57,4.02,AU,1710824528
230,phan rang-thap cham,11.5667,108.9833,305.14,43,17,7.15,VN,1710824528
231,vorgashor,67.5833,63.95,255.25,88,70,8.33,RU,1710824528
232,bridgewater,44.3835,-64.5155,274.32,85,34,4.63,CA,1710824377
233,northam,51.0333,-4.2167,286.29,96,99,7.54,GB,1710824529
234,pingliang,35.5392,106.6861,286.32,17,0,1.09,CN,1710824529
235,nadi,-17.8,177.4167,299.15,89,100,2.57,FJ,1710824254
236,remire-montjoly,4.9167,-52.2667,300.17,83,40,2.06,GF,1710824529
237,nishinoomote,30.7333,131.0,283.46,100,75,2.57,JP,1710824530
238,sieradz,51.5958,18.7302,273.81,100,62,2.27,PL,1710824339
239,koton-karfe,8.1,6.8,300.8,43,100,1.55,NG,1710824530
240,punta cana,18.5818,-68.4043,299.02,83,20,2.06,DO,1710824529
241,fisterra,42.9049,-9.2629,285.04,75,99,2.13,ES,1710824531
242,birjand,32.8663,59.2211,290.41,27,75,7.2,IR,1710824531
243,bunol,39.4167,-0.7833,285.12,49,100,1.67,ES,1710824531
244,kashmar,35.2383,58.4656,293.52,28,1,7.61,IR,1710824531
245,ausa,41.9271,2.2497,286.48,91,98,1.0,ES,1710824532
246,ballina,-28.8667,153.5667,299.7,68,10,4.06,AU,1710824532
247,mouila,-1.8685,11.0559,297.29,99,100,1.23,GA,1710824518
248,san salvador de jujuy,-24.1946,-65.2971,293.89,93,100,1.14,AR,1710824532
249,fale old settlement,-9.3852,-171.2468,302.85,73,81,3.42,TK,1710824532
250,tapa,59.2606,25.9586,273.36,91,100,1.23,EE,1710824355
251,zouerate,22.7187,-12.4521,295.49,11,4,3.49,MR,1710824533
252,harrisburg,40.2737,-76.8844,275.92,61,20,10.29,US,1710824193
253,kyren,51.6828,102.1408,274.79,61,38,0.45,RU,1710824533
254,awjilah,29.1081,21.2869,285.17,77,1,2.13,LY,1710824534
255,san patricio,28.017,-97.5169,291.39,54,77,4.98,US,1710824534
256,walajapet,12.9333,79.3833,304.2,41,1,4.26,IN,1710824534
257,escarcega,18.6089,-90.7454,297.65,82,18,1.18,MX,1710824535
258,palangkaraya,-2.2,113.8333,308.95,45,78,0.48,ID,1710824535
259,amungan,15.3652,119.9582,301.73,66,46,5.19,PH,1710824535
260,la passe,45.5549,-0.8967,282.58,90,93,1.89,FR,1710824536
261,hawaiian paradise park,19.5933,-154.9731,294.28,88,95,0.45,US,1710824536
262,taroa,8.7058,171.2275,300.43,79,93,7.92,MH,1710824537
263,gassol,8.5333,10.4667,299.15,17,92,2.47,NG,1710824537
264,ar ruways,24.1103,52.7306,298.5,48,91,5.9,AE,1710824538
265,kidal,18.4411,1.4078,292.02,16,2,5.55,ML,1710824443
266,bom jesus,-9.0744,-44.3586,297.44,81,43,0.89,BR,1710824162
267,sandnessjoen,66.0217,12.6316,275.21,51,0,2.57,NO,1710824539
268,loango,-4.6719,11.8312,300.16,88,77,2.09,CG,1710824539
269,ajjampur,13.7281,76.0094,304.26,25,17,1.0,IN,1710824540
270,ylitornio,66.3089,23.6773,264.91,91,35,3.26,FI,1710824540
271,latnaya,51.6586,38.9011,276.11,97,100,2.67,RU,1710824541
272,taguatinga,-12.3857,-46.5711,297.02,82,53,0.27,BR,1710824542
273,kavieng,-2.5744,150.7967,299.16,88,100,6.71,PG,1710824542
274,nouadhibou,20.931,-17.0347,291.14,88,20,7.2,MR,1710824543
275,tonsberg,59.2675,10.4076,274.97,85,100,1.54,NO,1710824543
276,carbonear,47.7332,-53.2148,274.4,94,78,6.1,CA,1710824543
277,yangambi,0.8102,24.4336,295.49,92,39,0.22,CD,1710824544
278,malango,-2.9627,119.9001,300.32,75,95,1.22,ID,1710824544
279,mount isa,-20.7333,139.5,303.02,62,75,7.2,AU,1710824545
280,palu,-0.8917,119.8707,304.39,69,97,2.06,ID,1710824545
281,sur,22.5667,59.5289,300.66,51,42,3.56,OM,1710824545
282,flitwick,52.0034,-0.4947,284.27,86,100,5.14,GB,1710824546
283,alofi,-19.0595,-169.9187,302.09,84,75,3.09,NU,1710824546
284,salinopolis,-0.6136,-47.3561,298.86,91,100,3.82,BR,1710824547
285,ribeira brava,32.65,-17.0667,290.77,77,94,1.72,PT,1710824547
286,tongchuanshi,35.0806,109.0897,286.71,18,0,2.51,CN,1710824547
287,szprotawa,51.5656,15.5366,269.44,81,24,2.2,PL,1710824548
288,sanctuary point,-35.1114,150.629,300.0,70,7,6.44,AU,1710824549
289,port saint john's,-31.6229,29.5448,293.44,83,21,2.12,ZA,1710824549
290,zhabinka,52.1984,24.0115,274.13,86,100,4.0,BY,1710824549
291,kalevala,65.2,31.1667,266.53,81,66,4.92,RU,1710824550
292,yamba,-5.9,22.3,294.91,89,75,1.68,CD,1710824550
293,westport,41.1415,-73.3579,276.9,56,0,3.6,US,1710824551
294,mhamid,29.82,-5.72,291.08,21,0,1.54,MA,1710824551
295,fuglafjordur,62.244,-6.814,281.41,91,100,14.63,FO,1710824551
296,bonthe,7.5264,-12.505,299.03,94,36,2.64,SL,1710824552
297,argo,37.6333,22.7333,284.7,78,100,1.71,GR,1710824463
298,zheleznodorozhnyy,55.7503,38.0042,274.44,100,100,1.79,RU,1710824552
299,altdorf,49.3875,11.3572,277.94,90,98,0.19,DE,1710824553
300,mek'ele,13.4967,39.4753,293.08,41,37,1.84,ET,1710824553
301,nabire,-3.3667,135.4833,304.13,64,94,3.27,ID,1710824554
302,dunedin,-45.8742,170.5036,284.47,69,52,5.45,NZ,1710824362
303,summit,41.1167,-81.5332,273.31,86,100,3.6,US,1710824439
304,coquimbo,-29.9533,-71.3436,287.0,100,40,2.06,CL,1710824419
305,afsin,38.2477,36.914,277.55,96,100,0.18,TR,1710824555
306,nova sintra,14.8667,-24.7167,292.58,79,71,11.14,CV,1710824555
307,acapetahua,15.2833,-92.7,298.66,78,70,1.44,MX,1710824556
308,cole harbour,44.6724,-63.4751,274.86,83,35,1.34,CA,1710824556
309,reggane,26.7158,0.1714,293.38,17,44,4.81,DZ,1710824556
310,anadyr,64.75,177.4833,250.43,69,0,5.0,RU,1710824557
311,bam,29.106,58.357,298.71,24,100,2.35,IR,1710824495
312,pailon,-17.65,-62.75,298.65,69,36,4.9,BO,1710824557
313,salto,-31.3833,-57.9667,296.97,94,74,0.45,UY,1710824182
314,mulayjah,27.271,48.4242,299.25,47,100,6.98,SA,1710824557
315,gwadabawa,13.3561,5.2366,292.63,15,0,5.57,NG,1710824558
316,lazaro cardenas,17.9583,-102.2,295.43,89,43,0.1,MX,1710824558
317,kayangel,8.0823,134.7173,300.64,82,88,7.08,PW,1710824558
318,kupang,-10.1667,123.5833,305.47,74,40,6.17,ID,1710824558
319,boa vista,2.8197,-60.6733,302.14,61,0,4.63,BR,1710824481
320,waingapu,-9.6567,120.2641,302.76,75,31,3.89,ID,1710824558
321,san juan de miraflores,-12.1629,-76.9635,297.69,78,100,2.29,PE,1710824559
322,santa isabel,-23.3156,-46.2214,296.76,98,98,0.36,BR,1710824559
323,kone,-21.0595,164.8658,302.16,74,56,3.77,NC,1710824560
324,port lincoln,-34.7333,135.8667,290.81,70,100,9.07,AU,1710824560
325,sinabang,2.4803,96.3801,302.77,67,28,2.0,ID,1710824560
326,baran,25.1,76.5167,302.16,10,0,1.3,IN,1710824561
327,ain sukhna,29.6002,32.3167,286.07,78,4,3.95,EG,1710824561
328,kapa'a,22.0752,-159.319,295.43,66,71,3.88,US,1710824561
329,carauari,-4.8828,-66.8958,295.85,99,100,1.15,BR,1710824561
330,enewetak,11.3474,162.3373,300.41,79,54,3.94,MH,1710824562
331,oranjemund,-28.55,16.4333,289.3,92,61,2.55,NA,1710824562
332,kununurra,-15.7667,128.7333,309.14,56,21,2.57,AU,1710824529
333,kharp,66.8014,65.8081,259.56,81,48,8.25,RU,1710824562
334,aswan,24.0934,32.907,287.76,41,0,3.09,EG,1710824453
335,barra da estiva,-13.6261,-41.3269,293.56,67,70,1.82,BR,1710824530
336,paita,-5.0892,-81.1144,296.93,77,87,1.42,PE,1710824563
337,zinder,13.8072,8.9881,291.07,22,2,4.69,NE,1710824563
338,pea ridge,38.414,-82.3199,274.28,70,17,0.45,US,1710824563
339,saint-felix-de-valois,46.1668,-73.4324,273.33,76,100,2.68,CA,1710824563
340,boiling springs,35.0465,-81.9818,277.31,40,0,4.63,US,1710824564
341,chowchilla,37.123,-120.2602,290.38,82,0,0.0,US,1710824547
342,lerwick,60.1545,-1.1494,281.15,96,100,12.01,GB,1710824564
343,motygino,58.1831,94.7592,273.59,98,100,5.36,RU,1710824564
344,cooper's town,26.8667,-77.5167,298.23,78,38,7.45,BS,1710824565
345,gyula,46.65,21.2833,275.35,63,14,3.91,HU,1710824565
346,zheshart,62.0731,49.5733,267.18,80,96,4.38,RU,1710824565
347,colonia,50.9333,6.95,282.56,85,20,1.03,DE,1710824409
348,niquero,20.0431,-77.5828,298.67,72,37,3.66,CU,1710824565
349,maloye ganyushkino,46.6,49.2667,276.62,77,71,2.86,KZ,1710824566
350,mersa matruh,31.3525,27.2453,285.26,87,40,2.57,EG,1710824566
351,xining,36.6167,101.7667,278.82,26,0,1.77,CN,1710824566
352,vila velha,-20.3297,-40.2925,299.23,94,40,0.89,BR,1710824065
353,east london,-33.0153,27.9116,289.67,100,0,2.06,ZA,1710824407
354,keminmaa,65.8596,24.8228,263.02,92,0,3.6,FI,1710824567
355,flying fish cove,-10.4217,105.6791,301.97,74,40,4.63,CX,1710824567
356,antsiranana,-12.2787,49.2917,299.57,78,20,0.0,MG,1710824567
357,susuman,62.7833,148.1667,265.36,81,74,0.89,RU,1710824568
358,laojunmiao,39.8333,97.7333,279.18,13,0,3.07,CN,1710824568
359,jalandhar,31.3256,75.5792,302.38,11,6,0.33,IN,1710824411
360,carutapera,-1.195,-46.02,298.37,93,98,2.55,BR,1710824568
361,kilindoni,-7.9139,39.6668,300.81,78,100,5.29,TZ,1710824568
362,toropets,56.4978,31.6353,274.25,97,100,2.13,RU,1710824569
363,karangsembung,-6.8487,108.6422,304.44,63,14,2.68,ID,1710824569
364,lompoc,34.6391,-120.4579,287.23,92,0,0.0,US,1710824460
365,ulsteinvik,62.3432,5.8487,282.65,74,98,3.9,NO,1710824569
366,mao,39.8885,4.2658,286.46,82,0,3.6,ES,1710824569
367,burang,30.25,81.1667,267.48,38,75,1.79,CN,1710824570
368,pariaman,-0.619,100.12,305.18,73,52,2.88,ID,1710824570
369,acarau,-2.8856,-40.12,299.17,88,100,3.02,BR,1710824492
370,bokhan,53.153,103.7714,275.23,92,85,0.69,RU,1710824570
371,manacapuru,-3.2997,-60.6206,297.19,95,100,1.67,BR,1710824319
372,tucuma,-0.1833,-50.05,297.57,96,100,2.02,BR,1710824510
373,malabar,-33.9667,151.25,303.8,70,40,6.17,AU,1710824571
374,brokopondo,4.75,-55.1667,298.02,82,62,4.36,SR,1710824571
375,kladno,50.1473,14.1029,271.37,86,0,1.54,CZ,1710824418
376,ubinskoye,55.3068,79.6802,270.87,83,100,2.87,RU,1710824571
377,yuzhno-kurilsk,44.0306,145.8556,271.14,74,100,12.33,RU,1710824572
378,kirensk,57.7853,108.1119,274.24,100,100,4.47,RU,1710824572
379,prado,-17.3411,-39.2208,298.19,93,54,2.71,BR,1710824572
380,lubang,13.8584,120.124,299.99,71,78,3.8,PH,1710824572
381,pocatello,42.8713,-112.4455,281.19,60,0,4.92,US,1710824573
382,akrehamn,59.2667,5.1833,278.38,70,100,9.77,NO,1710824573
383,pisco,-13.7,-76.2167,296.18,83,0,4.12,PE,1710824573
384,pokhara,28.2333,83.9833,299.02,11,18,3.48,NP,1710824277
385,rayevskiy,54.0658,54.9468,271.13,94,99,4.5,RU,1710824573
386,kargasok,59.0556,80.8572,268.13,87,100,5.36,RU,1710824573
387,san antonio de pale,-1.4014,5.6325,300.98,82,100,5.09,GQ,1710824563
388,chenzhou,25.8,113.0333,285.21,77,100,1.61,CN,1710824574
389,mount gambier,-37.8333,140.7667,293.76,56,98,5.85,AU,1710824574
390,eirunepe,-6.6603,-69.8736,296.05,99,94,0.99,BR,1710824566
391,papao,-17.75,-149.55,301.97,77,99,3.74,PF,1710824574
392,kovdor,67.5662,30.4758,265.56,94,98,2.69,RU,1710824575
393,san pedro del parana,-26.8333,-56.2,298.93,77,72,2.28,PY,1710824575
394,ungsang-nodongjagu,42.3578,130.4622,276.76,41,99,3.63,KP,1710824575
395,korla,41.7597,86.1469,282.89,26,0,3.73,CN,1710824429
396,jacmel,18.2342,-72.5347,298.3,79,0,0.75,HT,1710824357
397,cudillero,43.5622,-6.1459,286.85,99,100,0.0,ES,1710824576
398,khanty-mansiysk,61.0042,69.0019,266.21,63,0,7.15,RU,1710824576
399,vilhena,-12.7406,-60.1458,294.65,96,96,1.4,BR,1710824222
400,nuuk,64.1835,-51.7216,264.49,86,75,5.14,GL,1710824576
401,gobabis,-22.45,18.9667,293.23,46,69,3.3,NA,1710824576
402,kill devil hills,36.0307,-75.676,282.15,80,100,12.35,US,1710824454
403,ilheus,-14.7889,-39.0494,297.18,90,90,1.28,BR,1710824284
404,lamu,-2.2717,40.902,302.12,74,30,1.91,KE,1710824577
405,chonchi,-42.6128,-73.8092,284.71,96,100,3.52,CL,1710824577
406,port augusta,-32.5,137.7667,298.3,48,35,9.93,AU,1710824557
407,st. john's,47.5649,-52.7093,274.14,97,75,7.2,CA,1710824545
408,la sarre,48.8002,-79.1996,257.79,98,75,1.49,CA,1710824578
409,kaesong,37.9708,126.5544,282.81,60,93,7.14,KP,1710824578
410,san ignacio,17.1561,-89.0714,299.23,89,0,0.0,BZ,1710824578
411,sabha,27.0377,14.4283,286.6,34,0,3.2,LY,1710824474
412,walvis bay,-22.9575,14.5053,294.68,73,100,2.06,NA,1710824579
413,constantia,44.1833,28.65,277.53,86,99,4.52,RO,1710824299
414,ziro,27.6333,93.8333,287.56,30,19,0.19,IN,1710824579
415,srivardhan,18.0333,73.0167,302.37,46,6,4.42,IN,1710824579
416,portland,45.5234,-122.6762,290.43,70,0,0.45,US,1710824346
417,saint-francois,46.4154,3.9054,279.07,100,100,1.03,FR,1710824580
418,salida,37.7058,-121.0849,289.87,74,0,1.54,US,1710824536
419,funafuti,-8.5243,179.1942,300.15,89,75,7.2,TV,1710824580
420,greymouth,-42.4667,171.2,288.83,64,12,1.93,NZ,1710824505
421,edeia,-17.3383,-49.9314,297.05,65,16,0.82,BR,1710824560
422,las tablas,7.7667,-80.2833,298.8,99,68,4.51,PA,1710824581
423,ahtari,62.554,24.0619,266.47,99,84,2.11,FI,1710824581
424,crane,31.3974,-102.3501,284.26,53,87,4.31,US,1710824582
425,galveston,29.3669,-94.9669,289.81,51,42,0.89,US,1710824429
426,cabo san lucas,22.8909,-109.9124,294.68,72,56,1.34,MX,1710824468
427,amalner,21.05,75.0667,304.84,19,5,4.14,IN,1710824582
428,chivhu,-19.0211,30.8922,289.71,85,93,3.72,ZW,1710824582
429,jucas,-6.5253,-39.5275,296.29,97,64,0.96,BR,1710824583
430,labrador city,52.9463,-66.9114,267.1,93,100,2.06,CA,1710824556
431,inhambane,-23.865,35.3833,297.14,88,20,0.0,MZ,1710824583
432,polyarnyy,69.1989,33.4478,271.29,92,100,1.36,RU,1710824584
433,pacific grove,36.6177,-121.9166,286.16,87,7,2.24,US,1710824468
434,gudauta,43.1055,40.6207,283.7,68,65,3.3,GE,1710824584
435,basco,20.4487,121.9702,297.94,69,35,1.73,PH,1710824584
436,arkhangel'sk,64.5401,40.5433,271.0,49,20,5.0,RU,1710824448
437,gwadar,25.1216,62.3254,298.48,57,88,1.45,PK,1710824585
438,puerto lempira,15.2667,-83.7667,298.06,79,100,2.81,HN,1710824585
439,pumiao,22.75,108.4833,292.37,66,100,4.65,CN,1710824585
440,sao tome,0.3365,6.7273,300.04,88,100,4.71,ST,1710824466
441,prince rupert,54.3161,-130.3201,279.98,93,75,1.54,CA,1710824325
442,christchurch,-43.5333,172.6333,289.56,54,58,2.57,NZ,1710824410
443,briey,49.25,5.8333,280.24,78,80,0.95,FR,1710824586
444,mossel bay,-34.1831,22.146,288.11,93,94,2.43,ZA,1710824586
445,kaiyuan,23.6977,103.3037,294.41,45,61,3.23,CN,1710824587
446,bikenibeu village,1.3673,173.1241,303.13,79,75,3.09,KI,1710824587
447,shizuishan,39.2333,106.7694,282.61,12,0,4.49,CN,1710824587
448,puerto gaitan,4.3133,-72.0816,301.49,67,80,1.63,CO,1710824544
449,murzuq,25.9155,13.9184,286.18,34,0,2.28,LY,1710824587
450,nushki,29.5542,66.0215,295.59,21,99,0.18,PK,1710824588
451,port-vila,-17.7338,168.3219,298.93,100,100,1.54,VU,1710824481
452,port moresby,-9.4431,147.1797,302.12,70,95,4.7,PG,1710824404
453,alice springs,-23.7,133.8833,311.05,20,84,6.17,AU,1710824554
454,kulhudhuffushi,6.6221,73.07,301.46,75,11,5.5,MV,1710824588
455,new plymouth,-39.0667,174.0833,286.1,53,12,6.05,NZ,1710824589
456,khorixas,-20.3667,14.9667,298.44,43,51,2.9,NA,1710824589
457,ceeldheer,3.8488,47.1806,302.17,61,40,6.2,SO,1710824589
458,shingu,33.7333,135.9833,284.78,43,99,3.14,JP,1710824589
459,nagqu,31.5,92.0,270.94,48,100,3.49,CN,1710824589
460,svendborg,55.0598,10.6068,274.74,81,68,7.8,DK,1710824590
461,vengerovo,55.6848,76.7471,269.5,85,100,0.58,RU,1710824590
462,ha'il,27.5219,41.6907,289.16,94,40,5.14,SA,1710824590
463,limon,10.0,-83.0333,298.74,86,91,0.34,CR,1710824443
464,sarkand,45.41,79.9186,283.33,57,100,1.09,KZ,1710824590
465,shenjiamen,29.9576,122.298,283.53,71,9,6.54,CN,1710824590
466,perechyn,48.7333,22.4667,273.78,78,11,2.29,UA,1710824591
467,jodhpur,26.2867,73.03,303.16,11,0,3.51,IN,1710824418
468,south venice,27.0531,-82.4243,295.36,83,59,5.36,US,1710824591
469,larache,35.1932,-6.1557,289.81,77,78,0.64,MA,1710824591
470,bijie,27.3125,105.2942,279.16,86,100,0.04,CN,1710824592
471,revda,56.801,59.9303,268.8,64,63,2.02,RU,1710824592
472,bang saphan,11.2126,99.5117,304.8,55,15,4.22,TH,1710824592
473,vila do maio,15.1333,-23.2167,294.59,81,77,9.25,CV,1710824592
474,dabakala,8.3667,-4.4333,300.5,73,96,2.82,CI,1710824592
475,hadibu,12.65,54.0333,299.34,63,9,2.18,YE,1710824593
476,cheremushki,52.8356,91.3944,280.47,79,57,1.42,RU,1710824593
477,skwierzyna,52.5991,15.5065,272.26,77,15,1.87,PL,1710824593
478,sola,-13.8833,167.55,301.48,80,82,7.15,VU,1710824493
479,itoman,26.1247,127.6694,293.58,92,75,6.69,JP,1710824594
480,tchollire,8.4022,14.1698,297.72,22,100,0.21,CM,1710824594
481,nelson bay,-32.7167,152.15,300.18,85,2,10.28,AU,1710824594
482,ubari,26.5921,12.7805,286.83,32,0,2.3,LY,1710824594
483,kittila,67.6647,24.8936,269.23,63,0,2.06,FI,1710824595
484,saint george's,12.0564,-61.7485,299.82,79,17,7.61,GD,1710824352
485,putnok,48.3,20.4333,276.35,81,74,0.91,HU,1710824595
486,porto novo,6.4965,2.6036,301.05,87,67,2.0,BJ,1710824596
487,road town,18.4167,-64.6167,299.72,78,0,7.71,VG,1710824580
488,fedorovskiy,45.0972,40.9517,281.13,67,29,6.11,RU,1710824596
489,harper,4.375,-7.7169,300.38,89,42,2.91,LR,1710824596
490,gazojak,41.1875,61.4036,288.39,39,100,6.47,TM,1710824596
491,aral,40.5156,81.2636,285.82,16,7,4.0,CN,1710824597
492,lecheng,25.1238,113.3254,286.46,78,84,2.56,CN,1710824597
493,weno,7.4515,151.8468,300.12,94,100,2.06,FM,1710824597
494,new kingman-butler,35.265,-114.0323,285.87,65,75,1.79,US,1710824597
495,kachia,9.8667,7.95,295.91,14,99,3.86,NG,1710824598
496,karaton,-6.3424,106.1045,303.81,62,46,3.08,ID,1710824598
497,lavrio,37.7145,24.0565,288.09,73,100,1.46,GR,1710824306
498,rongelap,11.1635,166.8941,300.17,80,95,6.83,MH,1710824598
499,inhapim,-19.5492,-42.12,297.48,92,79,1.11,BR,1710824599
500,piti village,13.4626,144.6933,302.64,68,75,6.17,GU,1710824599
501,hatillo,18.4863,-66.8254,298.36,83,0,2.36,PR,1710824599
502,swift current,50.2834,-107.8014,278.6,70,0,2.57,CA,1710824578
503,tarinkot,32.6268,65.8733,289.92,36,0,2.62,AF,1710824599
504,simanggang,1.2472,111.4528,303.16,79,40,1.54,MY,1710824600
505,feuchtwangen,49.1667,10.3333,279.4,93,100,0.85,DE,1710824600
506,san jose,37.3394,-121.895,288.06,80,0,3.09,US,1710824517
507,ruzayevka,54.0639,44.9509,264.41,100,100,2.73,RU,1710824600
508,miandrivazo,-19.5167,45.4667,300.62,76,8,0.53,MG,1710824601
509,santa terezinha,-29.9002,-50.0904,296.64,96,64,4.35,BR,1710824601
510,tobruk,32.0836,23.9764,287.28,79,23,6.18,LY,1710824601
511,makumbako,-8.85,34.8333,289.73,93,83,3.86,TZ,1710824601
512,richard-toll,16.4625,-15.7008,296.11,28,48,4.48,SN,1710824601
513,morozovsk,48.3539,41.8261,274.02,97,92,4.14,RU,1710824602
514,kasongo-lunda,-6.4667,16.8167,294.46,97,100,1.19,CD,1710824602
515,trondheim,63.4305,10.3951,277.2,68,54,3.17,NO,1710824573
516,margate,51.3813,1.3862,283.65,88,100,2.68,GB,1710824559
517,paramonga,-10.6667,-77.8333,295.74,85,99,3.06,PE,1710824602
518,paragominas,-2.9667,-47.4833,296.43,100,100,0.75,BR,1710824559
519,dimbokro,6.6451,-4.7048,298.16,90,13,1.44,CI,1710824603
520,boguchany,58.3814,97.4531,274.18,91,100,5.36,RU,1710824603
521,topchikha,52.8192,83.1185,273.91,88,100,4.36,RU,1710824603
522,paracuru,-3.41,-39.0306,300.99,90,92,2.76,BR,1710824604
523,birao,10.2849,22.7882,301.3,22,86,3.99,CF,1710824546
524,tarfaya,27.9358,-12.9218,290.81,93,3,6.46,MA,1710824604
525,metro,-5.1131,105.3067,304.9,57,27,1.42,ID,1710824604
526,manokwari,-0.8667,134.0833,302.09,76,100,4.95,ID,1710824604
527,nemuro,43.3236,145.575,271.61,64,26,12.31,JP,1710824605
528,lethem,3.3803,-59.7968,300.45,64,61,4.32,GY,1710824605
529,mata-utu,-13.2816,-176.1745,302.8,71,100,3.41,WF,1710824605
530,kerikeri,-35.2268,173.9474,293.66,53,9,4.46,NZ,1710824605
531,quesnel,52.9999,-122.5029,281.43,46,100,2.06,CA,1710824407
532,ciudad lazaro cardenas,17.9583,-102.2,295.43,89,43,0.1,MX,1710824558
533,guangyuan,32.442,105.823,291.37,43,100,1.46,CN,1710824606
534,morehead city,34.7229,-76.726,286.15,58,100,12.35,US,1710824606
535,jinchang,38.4953,102.1739,282.26,14,0,2.36,CN,1710824606
536,general conesa,-40.1,-64.4333,287.9,59,97,6.47,AR,1710824606
537,vallenar,-28.5708,-70.7581,292.58,60,0,0.55,CL,1710824403
538,visakhapatnam,17.69,83.2093,304.09,70,40,2.06,IN,1710824607
539,cherdyn',60.403,56.4787,265.88,78,52,3.06,RU,1710824607
540,machali,-34.1833,-70.6667,291.57,24,99,0.2,CL,1710824415
541,kolonia town,6.964,158.206,303.21,79,100,2.06,FM,1710824607
542,alo,7.4178,6.7371,300.46,71,100,1.38,NG,1710824608
543,mukalla,14.5425,49.1242,299.12,66,69,3.03,YE,1710824608
544,gizo,-8.103,156.8419,302.52,71,65,3.03,SB,1710824608
545,suoyarvi,62.0833,32.35,260.29,98,68,0.67,RU,1710824608
546,puerto real,36.5282,-6.1901,290.24,88,0,2.06,ES,1710824421
547,kismayo,-0.3582,42.5454,302.1,69,33,4.48,SO,1710824609
548,medina,24.4686,39.6142,292.39,77,40,0.0,SA,1710824609
549,vadodara,22.3,73.2,302.13,23,5,1.54,IN,1710824609
550,uyar,55.81,94.3153,273.74,89,75,5.23,RU,1710824609
551,tefe,-3.3542,-64.7114,296.66,99,100,2.12,BR,1710824604
552,bela vista,-22.1089,-56.5211,300.48,57,6,2.18,BR,1710824164
553,keflavik,64.0049,-22.5624,273.39,80,75,10.29,IS,1710824610
554,goz beida,13.95,20.55,295.53,23,58,4.16,TD,1710824610
555,novyy urgal,51.0736,132.5642,264.88,68,93,0.64,RU,1710824610
556,fort mcmurray,56.7268,-111.381,265.92,62,75,7.72,CA,1710824610
557,mangrol,21.1167,70.1167,303.23,30,98,0.93,IN,1710824610
558,fada,9.5667,8.3,295.3,15,99,2.66,NG,1710824611
559,kristiansund,63.1115,7.732,278.51,56,40,2.06,NO,1710824611
